{
  "title": "London Landmarks",
  "description": "Discover the rich history and culture of London through its most famous landmarks and monuments on this guided tour.",
  "creator": "wkp23@byu.edu",
  "coverPhoto": "./images/destinations/London.jpg",
  "stops": [
    {
      "name": "Tower Bridge",
      "description": "The iconic bridge of London",
      "address": "",
      "vrReady": true,
      "lat": "51.5050563",
      "lng": "-0.0757071"
    },
    {
      "name": "Buckingham Palace",
      "description": "RIP Queen",
      "address": "",
      "vrReady": true,
      "lat": "51.50225",
      "lng": "-0.1394171"
    },
    {
      "name": "The London Eye",
      "description": "Huge observation wheel giving passengers a privileged bird's-eye view of the city's landmarks",
      "address": "",
      "vrReady": true,
      "lat": "51.5044252",
      "lng": "-0.1232642"
    },
    {
      "name": "Big Ben",
      "description": "16-story Gothic clocktower and national symbol at the Eastern end of the Houses of Parliament",
      "address": "",
      "vrReady": true,
      "lat": "51.5002273",
      "lng": "-0.1252538"
    },
    {
      "name": "Natural History Museum",
      "description": "Landmark museum of animals and natural phenomena",
      "address": "",
      "vrReady": true,
      "lat": "51.4954985",
      "lng": "-0.1762037"
    }
  ],
  "vrReady": true
}
